{"version": 0.6, "generator": "Overpass API 0.7.62.8 e802775f", "osm3s": {"timestamp_osm_base": "2025-10-04T18:42:00Z", "copyright": "The data included in this document is from www.openstreetmap.org. The data is made available under ODbL."}, "elements": [{"type": "node", "id": 707255911, "lat": 14.2143103, "lon": 74.9144093, "tags": {"internet_access": "no", "name": "Talaguppa", "name:kn": "\u0ca4\u0cbe\u0cb3\u0c97\u0cc1\u0caa\u0ccd\u0caa", "network": "IR", "operator": "SWR", "public_transport": "station", "railway": "station", "ref": "TLGP", "train": "yes", "wikidata": "Q63357190"}}, {"type": "node", "id": 1368272943, "lat": 14.1700827, "lon": 75.0235133, "tags": {"internet_access": "no", "name": "Sagar Jambagaru", "name:en": "Sagar Jambagaru", "name:kn": "\u0cb8\u0cbe\u0c97\u0cb0", "network": "IR", "operator": "SWR", "public_transport": "station", "railway": "station", "ref": "SRF", "wikidata": "Q1648262", "wikipedia": "en:Sagara, Karnataka"}}, {"type": "node", "id": 1641516844, "lat": 14.1664755, "lon": 75.0272052}, {"type": "node", "id": 1641516851, "lat": 14.1663707, "lon": 75.027743}, {"type": "node", "id": 1641516854, "lat": 14.1654626, "lon": 75.0276494}, {"type": "node", "id": 1641516859, "lat": 14.1655281, "lon": 75.0267452}, {"type": "node", "id": 1641516879, "lat": 14.166572, "lon": 75.0268927}, {"type": "node", "id": 1641516880, "lat": 14.1661731, "lon": 75.0267881}, {"type": "node", "id": 1641521117, "lat": 14.1641382, "lon": 75.0262216}, {"type": "node", "id": 1641521119, "lat": 14.1642023, "lon": 75.0256516}, {"type": "node", "id": 1641521120, "lat": 14.1646653, "lon": 75.0262847}, {"type": "node", "id": 1641521122, "lat": 14.1647295, "lon": 75.0257147}, {"type": "node", "id": 1644772783, "lat": 14.1457622, "lon": 75.0318092}, {"type": "node", "id": 1644772785, "lat": 14.145575, "lon": 75.0322169}, {"type": "node", "id": 1644772787, "lat": 14.1426412, "lon": 75.0300604}, {"type": "node", "id": 1644772789, "lat": 14.1425267, "lon": 75.0311172}, {"type": "node", "id": 1644772792, "lat": 14.142792, "lon": 75.0309187}, {"type": "node", "id": 1644772795, "lat": 14.1445606, "lon": 75.0322008}, {"type": "node", "id": 1644772801, "lat": 14.1460015, "lon": 75.030688}, {"type": "node", "id": 1644772804, "lat": 14.1458142, "lon": 75.0295079}, {"type": "node", "id": 1644772806, "lat": 14.1425631, "lon": 75.0316858}, {"type": "node", "id": 1644772807, "lat": 14.1439759, "lon": 75.029841}, {"type": "node", "id": 1644772808, "lat": 14.1435026, "lon": 75.0316528}, {"type": "node", "id": 1645840412, "lat": 14.1152507, "lon": 75.0670588}, {"type": "node", "id": 1645840416, "lat": 14.1647831, "lon": 75.0229043}, {"type": "node", "id": 1645840421, "lat": 14.1141572, "lon": 75.0680105}, {"type": "node", "id": 1645840426, "lat": 14.16509, "lon": 75.0220567}, {"type": "node", "id": 1645840430, "lat": 14.1657245, "lon": 75.0232637}, {"type": "node", "id": 1645840432, "lat": 14.1161426, "lon": 75.0686359}, {"type": "node", "id": 1645840442, "lat": 14.166021, "lon": 75.0223893}, {"type": "node", "id": 1646074302, "lat": 14.1665097, "lon": 75.038449}, {"type": "node", "id": 1646074304, "lat": 14.1669675, "lon": 75.0371723}, {"type": "node", "id": 1646074305, "lat": 14.1672483, "lon": 75.0371079}, {"type": "node", "id": 1646074308, "lat": 14.1672015, "lon": 75.0381647}, {"type": "node", "id": 1646074312, "lat": 14.1661873, "lon": 75.0375478}, {"type": "node", "id": 2612916278, "lat": 14.1700423, "lon": 74.8385914}, {"type": "node", "id": 2612916279, "lat": 14.1702247, "lon": 74.8383796}, {"type": "node", "id": 2612916283, "lat": 14.1705174, "lon": 74.8390267}, {"type": "node", "id": 2612916285, "lat": 14.1706998, "lon": 74.8388149}, {"type": "node", "id": 2612916286, "lat": 14.1707096, "lon": 74.8395236}, {"type": "node", "id": 2612916288, "lat": 14.1708795, "lon": 74.8393169}, {"type": "node", "id": 2612916290, "lat": 14.1712259, "lon": 74.8399751}, {"type": "node", "id": 2612916293, "lat": 14.1712489, "lon": 75.0122224}, {"type": "node", "id": 2612916296, "lat": 14.171389, "lon": 75.0132196}, {"type": "node", "id": 2612916297, "lat": 14.1713958, "lon": 74.8397685}, {"type": "node", "id": 2612916301, "lat": 14.1719729, "lon": 75.0130197}, {"type": "node", "id": 2612916302, "lat": 14.1719799, "lon": 75.0132365}, {"type": "node", "id": 2612916326, "lat": 14.1730776, "lon": 75.0128535}, {"type": "node", "id": 2612916329, "lat": 14.1732317, "lon": 75.0118009}, {"type": "node", "id": 2612916485, "lat": 14.200032, "lon": 74.9001171}, {"type": "node", "id": 2612916486, "lat": 14.2001558, "lon": 74.901254}, {"type": "node", "id": 2612916492, "lat": 14.2006135, "lon": 74.9012082}, {"type": "node", "id": 2612916493, "lat": 14.2006345, "lon": 74.9014539}, {"type": "node", "id": 2612916506, "lat": 14.2014355, "lon": 74.9013913}, {"type": "node", "id": 2612916511, "lat": 14.2017344, "lon": 74.9042312}, {"type": "node", "id": 2612916517, "lat": 14.2019795, "lon": 74.9042144}, {"type": "node", "id": 2612916518, "lat": 14.2020589, "lon": 74.9052911}, {"type": "node", "id": 2612916539, "lat": 14.2025283, "lon": 74.899775}, {"type": "node", "id": 2612916542, "lat": 14.202624, "lon": 74.9007915}, {"type": "node", "id": 2612916544, "lat": 14.2026497, "lon": 74.9049177}, {"type": "node", "id": 2612916551, "lat": 14.2028996, "lon": 74.9028462}, {"type": "node", "id": 2612916554, "lat": 14.2029393, "lon": 74.9027836}, {"type": "node", "id": 2612916555, "lat": 14.2030771, "lon": 74.904766}, {"type": "node", "id": 2612916558, "lat": 14.2032031, "lon": 74.9007048}, {"type": "node", "id": 2612916562, "lat": 14.2033456, "lon": 74.9020393}, {"type": "node", "id": 2612916565, "lat": 14.2035114, "lon": 74.9020128}, {"type": "node", "id": 2612916566, "lat": 14.2035441, "lon": 74.9026872}, {"type": "node", "id": 2612917973, "lat": 14.3371864, "lon": 74.8729405}, {"type": "node", "id": 2612917975, "lat": 14.3376781, "lon": 74.8740408}, {"type": "node", "id": 2612917978, "lat": 14.3379388, "lon": 74.8732811}, {"type": "node", "id": 2612917980, "lat": 14.3381748, "lon": 74.8736099}, {"type": "node", "id": 2612918103, "lat": 14.3717923, "lon": 75.096814}, {"type": "node", "id": 2612918105, "lat": 14.3720045, "lon": 75.0978998}, {"type": "node", "id": 2612918116, "lat": 14.373194, "lon": 75.0965221}, {"type": "node", "id": 2612918119, "lat": 14.3734061, "lon": 75.0976079}, {"type": "node", "id": 4306207380, "lat": 14.3441327, "lon": 75.0130597}, {"type": "node", "id": 4306207381, "lat": 14.3445147, "lon": 75.0129014}, {"type": "node", "id": 4306207382, "lat": 14.3443744, "lon": 75.0127432}, {"type": "node", "id": 4306207383, "lat": 14.344338, "lon": 75.0127083}, {"type": "node", "id": 4306207384, "lat": 14.3441223, "lon": 75.0127083}, {"type": "node", "id": 4306207385, "lat": 14.3441249, "lon": 75.0128853}, {"type": "node", "id": 6944129130, "lat": 14.1686149, "lon": 75.0232007, "tags": {"addr:district": "Shivamogga", "addr:full": "Beside Sharadamba Tample Railway Station Road Sagar", "addr:postcode": "577401", "addr:state": "Karnataka", "amenity": "hospital", "healthcare": "hospital", "name": "Sri Vinayaka Ent Hospital", "source": "OpenGovernmentData"}}, {"type": "node", "id": 6944929725, "lat": 14.1650624, "lon": 75.0216664, "tags": {"addr:district": "Shivamogga", "addr:full": "B.H. Road,Near Reliance Petrol Pump", "addr:postcode": "577401", "addr:state": "Karnataka", "amenity": "hospital", "healthcare": "hospital", "name": "Sri Vighneshwara Hospital", "source": "OpenGovernmentData"}}, {"type": "node", "id": 6947426784, "lat": 14.1671995, "lon": 75.0237599, "tags": {"addr:district": "Shivamogga", "addr:full": "Chanarajpet, Sagar", "addr:postcode": "577401", "addr:state": "Karnataka", "amenity": "hospital", "healthcare": "hospital", "name": "Chandini Hospital", "source": "OpenGovernmentData"}}, {"type": "node", "id": 6948334775, "lat": 14.1618064, "lon": 75.0301999, "tags": {"addr:district": "Shivamogga", "addr:full": "G.P Road, Sagar", "addr:postcode": "577401", "addr:state": "Karnataka", "amenity": "hospital", "name": "Padmamba Hospital", "source": "OpenGovernmentData"}}, {"type": "node", "id": 7078980285, "lat": 14.3699394, "lon": 75.0971195, "tags": {"addr:district": "Ganjam", "addr:full": "Sagar - Sorab Rd, Soraba", "addr:postcode": "761108", "addr:state": "Odisha", "amenity": "hospital", "name": "Soraba Government Hospital", "name:kn": "\u0cb8\u0cca\u0cb0\u0cac \u0cb8\u0cb0\u0ccd\u0c95\u0cbe\u0cb0\u0cbf \u0c86\u0cb8\u0ccd\u0caa\u0ca4\u0ccd\u0cb0\u0cc6", "source": "OpenGovernmentData", "website": "https://www.karnataka.gov.in/Pages/home.aspx"}}, {"type": "node", "id": 7202876218, "lat": 14.1912534, "lon": 75.1721122, "tags": {"addr:district": "Shimoga", "addr:full": "Grama Panchayat Road, Thygarthi", "addr:postcode": "577431", "addr:state": "Karnataka", "addr:subdistrict": "Sagar", "amenity": "hospital", "name": "Government Hospital, Thygarthi", "name:kn": "\u0cb8\u0cb0\u0ccd\u0c95\u0cbe\u0cb0\u0cbf \u0c86\u0cb8\u0ccd\u0caa\u0ca4\u0ccd\u0cb0\u0cc6 \u0ca4\u0ccd\u0caf\u0cbe\u0c97\u0cb0\u0ccd\u0ca4\u0cbf", "source": "OpenGovernmentData"}}, {"type": "node", "id": 7202876232, "lat": 14.031558, "lon": 75.124354, "tags": {"addr:district": "Shimoga", "addr:full": "Sagar-Hosanagar Road, Haridravathi", "addr:postcode": "577412", "addr:state": "Karnataka", "addr:subdistrict": "Hosanagara", "amenity": "hospital", "contact:phone": "08185 272324", "name": "Government Hospital, Haridravathi", "name:kn": "\u0cb8\u0cb0\u0ccd\u0c95\u0cbe\u0cb0\u0cbf \u0c86\u0cb8\u0ccd\u0caa\u0ca4\u0ccd\u0cb0\u0cc6 \u0cb9\u0cb0\u0cbf\u0ca6\u0ccd\u0cb0\u0cbe\u0cb5\u0ca4\u0cbf", "source": "OpenGovernmentData"}}, {"type": "node", "id": 7202876262, "lat": 14.2430346, "lon": 75.0215323, "tags": {"addr:district": "Shimoga", "addr:full": "Bandagadde", "addr:postcode": "577401", "addr:state": "Karnataka", "addr:subdistrict": "Sagar", "amenity": "hospital", "description": "Government Hospital", "name": "Government Hospital, Bandagadde", "name:kn": "\u0cb8\u0cb0\u0ccd\u0c95\u0cbe\u0cb0\u0cbf \u0c86\u0cb8\u0ccd\u0caa\u0ca4\u0ccd\u0cb0\u0cc6", "source": "OpenGovernmentData"}}, {"type": "node", "id": 7202876280, "lat": 14.1367335, "lon": 75.1089761, "tags": {"addr:district": "Shimoga", "addr:full": "Ullur", "addr:postcode": "577431", "addr:state": "Karnataka", "addr:subdistrict": "Sagar", "amenity": "hospital", "name": "Government Hospital, Ullur", "name:kn": "\u0cb8\u0cb0\u0ccd\u0c95\u0cbe\u0cb0\u0cbf \u0c86\u0cb8\u0ccd\u0caa\u0ca4\u0ccd\u0cb0\u0cc6", "source": "OpenGovernmentData"}}, {"type": "node", "id": 7205339696, "lat": 14.384893, "lon": 75.002016, "tags": {"addr:block": "Soraba", "addr:district": "Shimoga", "addr:full": "Soraba", "addr:postcode": "577429", "addr:state": "Karnataka", "addr:subdistrict": "Sorab", "amenity": "hospital", "name": "Hultikoppa Government Hospital", "name:kn": "\u0cb8\u0cb0\u0ccd\u0c95\u0cbe\u0cb0\u0cbf \u0c86\u0cb8\u0ccd\u0caa\u0ca4\u0ccd\u0cb0\u0cc6", "source": "OpenGovernmentData"}}, {"type": "node", "id": 7205339720, "lat": 14.3166832, "lon": 75.1803515, "tags": {"addr:block": "Soraba", "addr:district": "Shimoga", "addr:full": "Soraba,Shigga", "addr:postcode": "577429", "addr:state": "Karnataka", "addr:subdistrict": "Sorab", "amenity": "hospital", "name": "Hospital Shigga", "source": "OpenGovernmentData"}}, {"type": "node", "id": 12997411077, "lat": 14.1162938, "lon": 75.0697623}, {"type": "node", "id": 12997411078, "lat": 14.1155406, "lon": 75.0701195}, {"type": "node", "id": 12997411079, "lat": 14.1150519, "lon": 75.0691333}, {"type": "node", "id": 12997411080, "lat": 14.1167771, "lon": 75.0683642}, {"type": "node", "id": 12997411081, "lat": 14.117022, "lon": 75.0694672}, {"type": "way", "id": 151326861, "nodes": [1641516854, 1641516851, 1641516844, 1641516879, 1641516880, 1641516859, 1641516854], "tags": {"addr:district": "Shimoga", "addr:full": "J.C. Road", "addr:postcode": "577401", "addr:state": "Karnataka", "addr:subdistrict": "Sagar", "amenity": "hospital", "healthcare": "hospital", "name": "Government Sub Division Hospital", "name:kn": "\u0cb8\u0cb0\u0ccd\u0c95\u0cbe\u0cb0\u0cbf \u0c86\u0cb8\u0ccd\u0caa\u0ca4\u0ccd\u0cb0\u0cc6", "source": "OpenGovernmentData"}}, {"type": "way", "id": 151327380, "nodes": [1641521119, 1641521122, 1641521120, 1641521117, 1641521119], "tags": {"amenity": "school", "name": "St. Josephs Higher Primary School", "name:kn": "\u0cb8\u0cc7\u0c82\u0c9f\u0ccd \u0c9c\u0ccb\u0cb8\u0cc6\u0cab\u0ccd \u0cb9\u0cbf\u0cb0\u0cbf\u0caf \u0caa\u0ccd\u0cb0\u0cbe\u0ca5\u0cae\u0cbf\u0c95 \u0cb6\u0cbe\u0cb2\u0cc6"}}, {"type": "way", "id": 151642219, "nodes": [1644772806, 1644772808, 1644772795, 1644772785, 1644772783, 1644772801, 1644772804, 1644772807, 1644772787, 1644772792, 1644772789, 1644772806], "tags": {"amenity": "school", "name": "Sanjay Memorial Polytechnic", "website": "http://smpolytechnic.org/"}}, {"type": "way", "id": 151745780, "nodes": [1645840416, 1645840430, 1645840442, 1645840426, 1645840416], "tags": {"amenity": "school", "name": "Government Junior College", "name:kn": "\u0cb8\u0cb0\u0ccd\u0c95\u0cbe\u0cb0\u0cbf \u0c9c\u0cc2\u0ca8\u0cbf\u0caf\u0cb0\u0ccd \u0c95\u0cbe\u0cb2\u0cc7\u0c9c\u0cc1"}}, {"type": "way", "id": 151745781, "nodes": [1645840421, 12997411079, 12997411078, 12997411077, 12997411081, 12997411080, 1645840432, 1645840412, 1645840421], "tags": {"amenity": "school", "name": "Hongirana School of Excellence", "website": "https://www.hongirana.edu.in/"}}, {"type": "way", "id": 151768277, "nodes": [1646074312, 1646074302, 1646074308, 1646074305, 1646074304, 1646074312], "tags": {"amenity": "school", "name": "H. Shivalingappa High School", "name:kn": "\u0cb6\u0cbf\u0cb5\u0cb2\u0cbf\u0c82\u0c97\u0caa\u0ccd\u0caa \u0caa\u0ccd\u0cb0\u0ccc\u0ca1\u0cb6\u0cbe\u0cb2\u0cc6"}}, {"type": "way", "id": 255614813, "nodes": [2612918103, 2612918105, 2612918119, 2612918116, 2612918103], "tags": {"name": "Soraba", "name:kn": "\u0cb8\u0cca\u0cb0\u0cac", "operator": "KPTCL", "power": "substation", "substation": "distribution", "voltage": "110000"}}, {"type": "way", "id": 255614815, "nodes": [2612916485, 2612916539, 2612916542, 2612916558, 2612916562, 2612916565, 2612916566, 2612916554, 2612916551, 2612916555, 2612916544, 2612916518, 2612916517, 2612916511, 2612916506, 2612916493, 2612916492, 2612916486, 2612916485], "tags": {"gas_insulated": "no", "name": "Talaguppa", "name:kn": "\u0ca4\u0cbe\u0cb3\u0c97\u0cc1\u0caa\u0ccd\u0caa", "operator": "KPTCL", "power": "substation", "substation": "transmission", "voltage": "400000;220000"}}, {"type": "way", "id": 255614921, "nodes": [2612916288, 2612916286, 2612916290, 2612916297, 2612916288], "tags": {"power": "substation"}}, {"type": "way", "id": 255614930, "nodes": [2612916279, 2612916285, 2612916283, 2612916278, 2612916279], "tags": {"building": "yes", "name": "Linganamakki Power House", "name:kn": "\u0cb2\u0cbf\u0c82\u0c97\u0ca8\u0cae\u0c95\u0ccd\u0c95\u0cbf \u0cb5\u0cbf\u0ca6\u0ccd\u0caf\u0cc1\u0ca4\u0ccd \u0cb8\u0ccd\u0ca5\u0cbe\u0cb5\u0cb0", "operator": "Karnataka Power Corporation Limited", "plant:method": "water-storage", "plant:output:electricity": "55 MW", "plant:source": "hydro", "power": "plant", "wikidata": "Q3536409"}}, {"type": "way", "id": 255614934, "nodes": [2612917973, 2612917975, 2612917980, 2612917978, 2612917973], "tags": {"name": "Siddapura", "name:kn": "\u0cb8\u0cbf\u0ca6\u0ccd\u0ca6\u0cbe\u0caa\u0cc1\u0cb0", "operator": "KPTCL", "power": "substation", "substation": "distribution", "voltage": "110000"}}, {"type": "way", "id": 255614967, "nodes": [2612916329, 2612916326, 2612916301, 2612916302, 2612916296, 2612916293, 2612916329], "tags": {"name": "Sagara", "name:kn": "\u0cb8\u0cbe\u0c97\u0cb0", "operator": "KPTCL", "power": "substation", "substation": "distribution", "voltage": "110000"}}, {"type": "way", "id": 431422091, "nodes": [4306207380, 4306207381, 4306207382, 4306207383, 4306207384, 4306207385, 4306207380], "tags": {"amenity": "school", "name": "Primary School", "name:kn": "\u0caa\u0ccd\u0cb0\u0cbe\u0ca5\u0cae\u0cbf\u0c95 \u0cb6\u0cbe\u0cb2\u0cc6"}}]}